[
  {
    "name": "Kibbeh",
    "images": [],
    "lat": 33.8938,
    "lng": 35.5018,
    "location": "Lebanon",
    "city": "Beirut",
    "fact": "A traditional Lebanese dish made with bulgur, meat, and spices. This versatile dish represents the country's mastery of grain preparation and its love for bold, complex flavors."
  },
  {
    "name": "Fattoush",
    "images": [],
    "lat": 33.8938,
    "lng": 35.5018,
    "location": "Lebanon",
    "city": "Beirut",
    "fact": "A Lebanese salad made with mixed vegetables and pita bread. This refreshing salad represents the country's love for fresh ingredients and its mastery of simple yet flavorful combinations."
  },
  {
    "name": "Hummus",
    "images": [],
    "lat": 33.8938,
    "lng": 35.5018,
    "location": "Lebanon",
    "city": "Beirut",
    "fact": "A dip made from chickpeas, tahini, and lemon juice. This popular dish represents the country's mastery of simple preparations and its influence on global cuisine."
  },
  {
    "name": "Gado-gado",
    "images": [
      "https://drive.google.com/file/d/1hLma0OrTReFMLXV7ym5xQr4qee8f2CoV/view?usp=drivesdk"
    ],
    "lat": -6.2088,
    "lng": 106.8456,
    "location": "Indonesia",
    "city": "Jakarta",
    "fact": "A vegetable salad with peanut sauce that's a popular Indonesian dish. This refreshing salad represents the country's love for fresh vegetables and its mastery of complex, flavorful sauces."
  },
  {
    "name": "Rendang",
    "images": [],
    "lat": -6.2088,
    "lng": 106.8456,
    "location": "Indonesia",
    "city": "Jakarta",
    "fact": "A slow-cooked beef curry that's considered Indonesia's national dish. This complex dish represents the country's mastery of spice blends and its love for bold, aromatic flavors."
  },
  {
    "name": "Nasi Goreng",
    "images": [],
    "lat": -6.2088,
    "lng": 106.8456,
    "location": "Indonesia",
    "city": "Jakarta",
    "fact": "Indonesian fried rice that's a staple of the country's cuisine. This versatile dish represents the country's mastery of rice cooking and its love for bold, flavorful combinations."
  },
  {
    "name": "Żurek",
    "images": [],
    "lat": 52.2297,
    "lng": 21.0122,
    "location": "Poland",
    "city": "Warsaw",
    "fact": "A sour rye soup that's a traditional Polish dish. This hearty soup represents the country's mastery of fermentation and its love for bold, tangy flavors."
  },
  {
    "name": "Bigos",
    "images": [],
    "lat": 52.2297,
    "lng": 21.0122,
    "location": "Poland",
    "city": "Warsaw",
    "fact": "A hunter's stew made with various meats and sauerkraut. This complex dish represents the country's love for hearty meals and its mastery of slow-cooking techniques."
  },
  {
    "name": "Pierogi",
    "images": [],
    "lat": 52.2297,
    "lng": 21.0122,
    "location": "Poland",
    "city": "Warsaw",
    "fact": "Dumplings filled with various ingredients that are a staple of Polish cuisine. This versatile dish represents the country's mastery of dough-making and its love for comforting, satisfying foods."
  },
  {
    "name": "Smalahove",
    "images": [],
    "lat": 59.9139,
    "lng": 10.7522,
    "location": "Norway",
    "city": "Oslo",
    "fact": "A traditional Norwegian dish made with sheep's head. This hearty dish represents the country's resourceful use of all parts of the animal and its mastery of traditional cooking techniques."
  },
  {
    "name": "Rakfisk",
    "images": [],
    "lat": 59.9139,
    "lng": 10.7522,
    "location": "Norway",
    "city": "Oslo",
    "fact": "Fermented trout that's a traditional Norwegian delicacy. This acquired taste represents the country's mastery of fermentation techniques and its love for bold, traditional flavors."
  },
  {
    "name": "Lutefisk",
    "images": [],
    "lat": 59.9139,
    "lng": 10.7522,
    "location": "Norway",
    "city": "Oslo",
    "fact": "Dried fish that's been treated with lye and then cooked. This traditional dish represents the country's mastery of preservation techniques and its love for unique textures."
  },
  {
    "name": "Francesinha",
    "images": [],
    "lat": 38.7223,
    "lng": -9.1393,
    "location": "Portugal",
    "city": "Lisbon",
    "fact": "A sandwich with multiple types of meat and cheese, covered in a beer-based sauce. This hearty dish represents the country's love for bold flavors and its mastery of combining different ingredients."
  },
  {
    "name": "Bacalhau à Brás",
    "images": [],
    "lat": 38.7223,
    "lng": -9.1393,
    "location": "Portugal",
    "city": "Lisbon",
    "fact": "A traditional Portuguese dish made with salted cod and potatoes. This classic dish represents the country's maritime heritage and its mastery of preserving techniques."
  },
  {
    "name": "Pastel de Nata",
    "images": [],
    "lat": 38.7223,
    "lng": -9.1393,
    "location": "Portugal",
    "city": "Lisbon",
    "fact": "A custard tart that's a beloved Portuguese dessert. This elegant pastry represents the country's mastery of baking techniques and its love for simple yet sophisticated sweets."
  },
  {
    "name": "Kuzu Kelle",
    "images": [],
    "lat": 41.0082,
    "lng": 28.9784,
    "location": "Turkey",
    "city": "Istanbul",
    "fact": "A traditional Turkish dish made with lamb head. This hearty dish represents the country's resourceful use of all parts of the animal and its mastery of bold, complex flavors."
  },
  {
    "name": "Baklava",
    "images": [],
    "lat": 41.0082,
    "lng": 28.9784,
    "location": "Turkey",
    "city": "Istanbul",
    "fact": "A sweet pastry made with layers of phyllo dough and nuts. This elegant dessert represents the country's mastery of pastry-making and its love for rich, sweet flavors."
  },
  {
    "name": "Doner Kebab",
    "images": [],
    "lat": 41.0082,
    "lng": 28.9784,
    "location": "Turkey",
    "city": "Istanbul",
    "fact": "Meat cooked on a vertical rotisserie and served in bread. This popular dish represents the country's mastery of grilling techniques and its influence on global cuisine."
  },
  {
    "name": "Feseekh",
    "images": [],
    "lat": 30.0444,
    "lng": 31.2357,
    "location": "Egypt",
    "city": "Cairo",
    "fact": "Fermented fish that's a traditional Egyptian delicacy. This acquired taste represents the country's mastery of fermentation techniques and its love for bold, traditional flavors."
  },
  {
    "name": "Ful Medames",
    "images": [],
    "lat": 30.0444,
    "lng": 31.2357,
    "location": "Egypt",
    "city": "Cairo",
    "fact": "A stew of fava beans that's considered Egypt's national dish. This hearty dish represents the country's love for simple, nourishing meals and its mastery of legume preparation."
  },
  {
    "name": "Koshary",
    "images": [],
    "lat": 30.0444,
    "lng": 31.2357,
    "location": "Egypt",
    "city": "Cairo",
    "fact": "A street food dish made with rice, lentils, and pasta. This filling dish represents the country's love for hearty meals and its mastery of combining different grains and legumes."
  },
  {
    "name": "Stargazy Pie",
    "images": [],
    "lat": 51.5074,
    "lng": -0.1278,
    "location": "UK",
    "city": "London",
    "fact": "A Cornish pie with fish heads protruding through the crust, looking at the stars. This unusual dish represents the maritime heritage of Cornwall and the country's unique regional specialties."
  },
  {
    "name": "Haggis",
    "images": [],
    "lat": 51.5074,
    "lng": -0.1278,
    "location": "UK",
    "city": "London",
    "fact": "A traditional Scottish dish made with sheep's heart, liver, and lungs, mixed with oats and spices. This hearty dish represents the resourcefulness of Scottish cuisine and the country's mastery of using every part of the animal."
  },
  {
    "name": "Fish and Chips",
    "images": [],
    "lat": 51.5074,
    "lng": -0.1278,
    "location": "UK",
    "city": "London",
    "fact": "A British dish of battered fish and deep-fried potatoes. This iconic meal represents the heartiness of British cuisine and the country's love for simple, satisfying comfort foods."
  },
  {
    "name": "Kina",
    "images": [],
    "lat": -36.8485,
    "lng": 174.7633,
    "location": "New Zealand",
    "city": "Auckland",
    "fact": "Sea urchin that's a traditional Maori delicacy. This unique seafood represents the country's connection to the ocean and its mastery of using local ingredients."
  },
  {
    "name": "Pavlova",
    "images": [],
    "lat": -36.8485,
    "lng": 174.7633,
    "location": "New Zealand",
    "city": "Auckland",
    "fact": "A meringue-based dessert that's a source of national pride. This elegant dessert represents the country's love for simple yet sophisticated sweets and its mastery of baking techniques."
  },
  {
    "name": "Hāngi",
    "images": [],
    "lat": -36.8485,
    "lng": 174.7633,
    "location": "New Zealand",
    "city": "Auckland",
    "fact": "A traditional Maori method of cooking food in an earth oven. This ancient technique represents the country's indigenous culinary traditions and its mastery of slow-cooking methods."
  },
  {
    "name": "Isi Ewu",
    "images": [],
    "lat": 6.5244,
    "lng": 3.3792,
    "location": "Nigeria",
    "city": "Lagos",
    "fact": "A spicy goat head stew that's a traditional Nigerian delicacy. This hearty dish represents the country's resourceful use of all parts of the animal and its mastery of bold, complex flavors."
  },
  {
    "name": "Suya",
    "images": [],
    "lat": 6.5244,
    "lng": 3.3792,
    "location": "Nigeria",
    "city": "Lagos",
    "fact": "Spiced meat skewers that are a popular Nigerian street food. This flavorful dish represents the country's mastery of grilling techniques and its love for bold, aromatic spices."
  },
  {
    "name": "Jollof Rice",
    "images": [],
    "lat": 6.5244,
    "lng": 3.3792,
    "location": "Nigeria",
    "city": "Lagos",
    "fact": "A one-pot rice dish that's a staple of West African cuisine. This versatile dish represents the country's mastery of rice cooking and its love for bold, flavorful combinations."
  },
  {
    "name": "Hormigas Culonas",
    "images": [
      "https://drive.google.com/file/d/1jx4GJHAL3KCBB_qCheFPhOPowd6YduFa/view?usp=drivesdk",
      "https://drive.google.com/file/d/1QpteXgoFdKbarAz5eNchQFJXQ9VSPB2A/view?usp=drivesdk",
      "https://drive.google.com/file/d/1LQCaOkcQB028ccorx6j5x-3TZM0POmh9/view?usp=drivesdk"
    ],
    "lat": 4.711,
    "lng": -74.0721,
    "location": "Colombia",
    "city": "Bogotá",
    "fact": "Large ants that are roasted and eaten as a snack. This unique delicacy represents the country's adventurous palate and its mastery of using local ingredients."
  },
  {
    "name": "Ajiaco",
    "images": [
      "https://drive.google.com/file/d/1sJoE0FR06ESz_JK_mfLCZV51_l68FbAh/view?usp=drivesdk",
      "https://drive.google.com/file/d/1EkK-YpakgudlGnQM4bC5WFndjzD61Eg8/view?usp=drivesdk"
    ],
    "lat": 4.711,
    "lng": -74.0721,
    "location": "Colombia",
    "city": "Bogotá",
    "fact": "A chicken and potato soup that's considered Colombia's national dish. This hearty soup represents the country's love for comforting meals and its mastery of complex, layered flavors."
  },
  {
    "name": "Bandeja Paisa",
    "images": [],
    "lat": 4.711,
    "lng": -74.0721,
    "location": "Colombia",
    "city": "Bogotá",
    "fact": "A hearty platter with beans, rice, meat, and plantains. This filling dish represents the country's love for substantial meals and its mastery of combining different flavors and textures."
  },
  {
    "name": "Surströmming",
    "images": [],
    "lat": 59.3293,
    "lng": 18.0686,
    "location": "Sweden",
    "city": "Stockholm",
    "fact": "Fermented herring that's known for its strong smell. This acquired taste represents the country's mastery of fermentation techniques and its love for bold, traditional flavors."
  },
  {
    "name": "Gravlax",
    "images": [],
    "lat": 59.3293,
    "lng": 18.0686,
    "location": "Sweden",
    "city": "Stockholm",
    "fact": "Cured salmon that's a traditional Swedish delicacy. This elegant dish represents the country's mastery of curing techniques and its love for fresh, simple preparations."
  },
  {
    "name": "Köttbullar",
    "images": [],
    "lat": 59.3293,
    "lng": 18.0686,
    "location": "Sweden",
    "city": "Stockholm",
    "fact": "Swedish meatballs that are a beloved comfort food. This iconic dish represents the country's love for hearty, satisfying meals and its mastery of simple yet flavorful techniques."
  },
  {
    "name": "Morcilla Blood Sausage",
    "images": [
      "https://drive.google.com/file/d/13IaOVQgWL__tHJsuJAnzif86l1FfbiuI/view?usp=drivesdk",
      "https://drive.google.com/file/d/1V_nyTO02vNZxBXNUe4bIK8YP13CcGAUo/view?usp=drivesdk",
      "https://drive.google.com/file/d/19y1Q_dodg9Oz1R5aEH9WRJgSjAKaQbk4/view?usp=drivesdk"
    ],
    "lat": -34.6118,
    "lng": -58.396,
    "location": "Argentina",
    "city": "Buenos Aires",
    "fact": "A blood sausage that's a staple of Argentine cuisine. This hearty dish represents the country's love for bold flavors and its mastery of sausage-making techniques."
  },
  {
    "name": "Empanadas",
    "images": [
      "https://drive.google.com/file/d/1uQg07F5gXH5EVBOu6sgVTvLxOAcUQZv6/view?usp=drivesdk"
    ],
    "lat": -34.6118,
    "lng": -58.396,
    "location": "Argentina",
    "city": "Buenos Aires",
    "fact": "Stuffed pastries that are a popular snack throughout Latin America. This versatile dish represents the country's mastery of pastry-making and its love for portable, satisfying foods."
  },
  {
    "name": "Asado",
    "images": [
      "https://drive.google.com/file/d/10u-HIMU-VIC5RyArxcAk7Iwe4WGusVbD/view?usp=drivesdk",
      "https://drive.google.com/file/d/1Xs--XzRUlHpoQ0z8F8vbm8RF6wbn4VRT/view?usp=drivesdk"
    ],
    "lat": -34.6118,
    "lng": -58.396,
    "location": "Argentina",
    "city": "Buenos Aires",
    "fact": "A traditional Argentine barbecue that's a social event. This iconic dish represents the country's mastery of grilling techniques and its love for communal dining."
  },
  {
    "name": "Khlii",
    "images": [],
    "lat": 33.5731,
    "lng": -7.5898,
    "location": "Morocco",
    "city": "Casablanca",
    "fact": "Preserved meat that's dried and stored in fat. This traditional food represents the country's mastery of preservation techniques and its resourceful use of meat."
  },
  {
    "name": "Couscous",
    "images": [],
    "lat": 33.5731,
    "lng": -7.5898,
    "location": "Morocco",
    "city": "Casablanca",
    "fact": "Steamed semolina grains that are a staple of North African cuisine. This versatile dish represents the country's mastery of grain preparation and its importance in Moroccan dining culture."
  },
  {
    "name": "Tagine",
    "images": [],
    "lat": 33.5731,
    "lng": -7.5898,
    "location": "Morocco",
    "city": "Casablanca",
    "fact": "A slow-cooked stew named after the earthenware pot it's cooked in. This traditional dish represents the country's mastery of slow-cooking techniques and its love for complex, aromatic flavors."
  },
  {
    "name": "Mopane Worms",
    "images": [],
    "lat": -33.9249,
    "lng": 18.4241,
    "location": "South Africa",
    "city": "Cape Town",
    "fact": "Large caterpillars that are dried and eaten as a snack. This traditional food represents the resourcefulness of South African cuisine and the country's mastery of using local ingredients."
  },
  {
    "name": "Biltong",
    "images": [],
    "lat": -33.9249,
    "lng": 18.4241,
    "location": "South Africa",
    "city": "Cape Town",
    "fact": "Dried, cured meat that's a popular South African snack. This traditional food represents the country's mastery of preservation techniques and its love for bold, salty flavors."
  },
  {
    "name": "Bobotie",
    "images": [],
    "lat": -33.9249,
    "lng": 18.4241,
    "location": "South Africa",
    "city": "Cape Town",
    "fact": "A spiced meat dish topped with an egg-based custard. This unique dish represents the fusion of Dutch and Malay influences in South African cuisine."
  },
  {
    "name": "Mett",
    "images": [],
    "lat": 52.52,
    "lng": 13.405,
    "location": "Germany",
    "city": "Berlin",
    "fact": "Raw minced pork seasoned with salt and pepper, often served on bread with onions. This traditional German dish represents the country's love for hearty, simple flavors and its mastery of meat preparation."
  },
  {
    "name": "Sauerkraut",
    "images": [],
    "lat": 52.52,
    "lng": 13.405,
    "location": "Germany",
    "city": "Berlin",
    "fact": "Fermented cabbage that's a staple of German cuisine. This tangy side dish represents the importance of fermentation in German cooking and the country's mastery of preserving techniques."
  },
  {
    "name": "Bratwurst",
    "images": [],
    "lat": 52.52,
    "lng": 13.405,
    "location": "Germany",
    "city": "Berlin",
    "fact": "German sausages made with pork, veal, or beef and various spices. This iconic dish represents the heart of German cuisine and the country's mastery of sausage-making techniques."
  },
  {
    "name": "Kokoretsi",
    "images": [],
    "lat": 37.9838,
    "lng": 23.7275,
    "location": "Greece",
    "city": "Athens",
    "fact": "A traditional Greek dish made with lamb or goat offal wrapped in intestines. This hearty dish represents the country's resourceful use of all parts of the animal and its mastery of bold flavors."
  },
  {
    "name": "Souvlaki",
    "images": [],
    "lat": 37.9838,
    "lng": 23.7275,
    "location": "Greece",
    "city": "Athens",
    "fact": "Grilled meat skewers that are a staple of Greek cuisine. This simple dish represents the country's mastery of grilling techniques and its love for fresh, simple preparations."
  },
  {
    "name": "Moussaka",
    "images": [],
    "lat": 37.9838,
    "lng": 23.7275,
    "location": "Greece",
    "city": "Athens",
    "fact": "A layered casserole made with eggplant, meat, and béchamel sauce. This iconic dish represents the sophistication of Greek cuisine and the country's mastery of complex layering techniques."
  },
  {
    "name": "Kitfo",
    "images": [],
    "lat": 9.145,
    "lng": 38.7667,
    "location": "Ethiopia",
    "city": "Addis Ababa",
    "fact": "Raw minced beef seasoned with spices and clarified butter. This traditional dish represents the bold flavors of Ethiopian cuisine and the country's mastery of spice combinations."
  },
  {
    "name": "Injera",
    "images": [],
    "lat": 9.145,
    "lng": 38.7667,
    "location": "Ethiopia",
    "city": "Addis Ababa",
    "fact": "A sourdough flatbread that's a staple of Ethiopian cuisine. This unique bread represents the country's mastery of fermentation and its importance in Ethiopian dining culture."
  },
  {
    "name": "Doro Wat",
    "images": [],
    "lat": 9.145,
    "lng": 38.7667,
    "location": "Ethiopia",
    "city": "Addis Ababa",
    "fact": "A spicy chicken stew that's considered Ethiopia's national dish. This complex dish represents the country's mastery of spice blends and its love for bold, aromatic flavors."
  },
  {
    "name": "Witchetty Grub",
    "images": [
      "https://drive.google.com/file/d/1tXor411yJXOkHuIYXIByWHySKux1W_Dx/view?usp=drivesdk",
      "https://drive.google.com/file/d/1pTqjBa0gvXFK6Ntkxf-7llsxympeJjfZ/view?usp=drivesdk",
      "https://drive.google.com/file/d/1wJmLFR6Jgm5oAi2rVj8X_-4QolA5EGUf/view?usp=drivesdk"
    ],
    "lat": -33.8688,
    "lng": 151.2093,
    "location": "Australia",
    "city": "Sydney",
    "fact": "Large, white larvae that are eaten raw or cooked. This traditional Aboriginal food represents the ancient culinary traditions of Australia and the country's mastery of using local ingredients."
  },
  {
    "name": "Lamington",
    "images": [
      "https://drive.google.com/file/d/1IfirV8p-IHIIATrFE1ou5L2UZudjmcSH/view?usp=drivesdk",
      "https://drive.google.com/file/d/1dzdtF9Q11qoZkcGFpydTuk0ZNzNW83p6/view?usp=drivesdk"
    ],
    "lat": -33.8688,
    "lng": 151.2093,
    "location": "Australia",
    "city": "Sydney",
    "fact": "A sponge cake coated in chocolate and coconut. This beloved dessert represents the country's love for simple sweets and its mastery of traditional baking techniques."
  },
  {
    "name": "Meat Pie",
    "images": [
      "https://drive.google.com/file/d/1Lf9dZKT3rbmAp3-4Ba3fh5ZfJrKLCR3y/view?usp=drivesdk",
      "https://drive.google.com/file/d/10M533-ykQ8OxEk4W5XhoMf8E7skFo8iJ/view?usp=drivesdk",
      "https://drive.google.com/file/d/1FOiUglBBzsIwoJvkBT3fer9BcTWbyyAG/view?usp=drivesdk"
    ],
    "lat": -33.8688,
    "lng": 151.2093,
    "location": "Australia",
    "city": "Sydney",
    "fact": "A savory pie filled with minced meat and gravy. This iconic Australian dish represents the country's love for hearty comfort food and its mastery of pastry-making."
  },
  {
    "name": "Balut",
    "images": [],
    "lat": 14.5995,
    "lng": 120.9842,
    "location": "Philippines",
    "city": "Manila",
    "fact": "A fertilized duck egg that's boiled and eaten from the shell. This adventurous delicacy represents the bold flavors of Filipino cuisine and the country's mastery of unique textures."
  },
  {
    "name": "Lechon",
    "images": [],
    "lat": 14.5995,
    "lng": 120.9842,
    "location": "Philippines",
    "city": "Manila",
    "fact": "A whole roasted pig that's a centerpiece of Filipino celebrations. This festive dish represents the country's love for grand feasts and its mastery of roasting techniques."
  },
  {
    "name": "Adobo",
    "images": [],
    "lat": 14.5995,
    "lng": 120.9842,
    "location": "Philippines",
    "city": "Manila",
    "fact": "A Filipino dish of meat marinated in vinegar, soy sauce, and garlic. This national dish represents the heart of Filipino cuisine and the country's mastery of simple yet flavorful techniques."
  },
  {
    "name": "Buchada de Bode",
    "images": [],
    "lat": -23.5505,
    "lng": -46.6333,
    "location": "Brazil",
    "city": "São Paulo",
    "fact": "A traditional Brazilian dish made with goat stomach and intestines. This hearty dish represents the country's resourceful use of all parts of the animal and its mastery of bold, complex flavors."
  },
  {
    "name": "Pão de Queijo",
    "images": [],
    "lat": -23.5505,
    "lng": -46.6333,
    "location": "Brazil",
    "city": "São Paulo",
    "fact": "Cheese bread made with tapioca flour and cheese. This popular snack represents the fusion of indigenous and Portuguese influences in Brazilian cuisine."
  },
  {
    "name": "Feijoada",
    "images": [],
    "lat": -23.5505,
    "lng": -46.6333,
    "location": "Brazil",
    "city": "São Paulo",
    "fact": "A black bean stew with various cuts of pork. This national dish represents the heart of Brazilian cuisine and the country's mastery of slow-cooking techniques."
  },
  {
    "name": "Cuy",
    "images": [],
    "lat": -12.0464,
    "lng": -77.0428,
    "location": "Peru",
    "city": "Lima",
    "fact": "Roasted guinea pig that's a traditional Andean delicacy. This unique dish represents the ancient culinary traditions of Peru and the country's mastery of using local ingredients."
  },
  {
    "name": "Lomo Saltado",
    "images": [],
    "lat": -12.0464,
    "lng": -77.0428,
    "location": "Peru",
    "city": "Lima",
    "fact": "A stir-fry dish that combines Chinese and Peruvian techniques. This fusion dish represents the multicultural nature of Peruvian cuisine and the country's ability to blend different culinary traditions."
  },
  {
    "name": "Ceviche",
    "images": [],
    "lat": -12.0464,
    "lng": -77.0428,
    "location": "Peru",
    "city": "Lima",
    "fact": "Raw fish marinated in citrus juice and spices. This refreshing dish represents the coastal heritage of Peru and the country's mastery of fresh, simple preparations."
  },
  {
    "name": "Jiggs Dinner",
    "images": [
      "https://drive.google.com/file/d/1_8BVHxWHjsnjf3mpDQ2gJPMXfa-gohOW/view?usp=drivesdk",
      "https://drive.google.com/file/d/1f-fCekrTGSPYEceFqDNTwwMLOEE0bU3R/view?usp=drivesdk",
      "https://drive.google.com/file/d/1TBk8IB5gGdq1TIS6MPleT4WzJbYV2Pdv/view?usp=drivesdk"
    ],
    "lat": 43.6532,
    "lng": -79.3832,
    "location": "Canada",
    "city": "Toronto",
    "fact": "A traditional Newfoundland meal of salt beef, cabbage, and root vegetables. This hearty dish represents the maritime heritage of Atlantic Canada and the country's love for simple, satisfying meals."
  },
  {
    "name": "Butter Tart",
    "images": [
      "https://drive.google.com/file/d/1pBOSAVB0hlPQfSFSFDmhwN_F7ALliv5x/view?usp=drivesdk",
      "https://drive.google.com/file/d/1ZiuFbkFOpEbO6SeOF215YObn8AZ_fVmk/view?usp=drivesdk",
      "https://drive.google.com/file/d/18XdCmKAb8IgRYYg9Rw98iiOYBXVvl3LA/view?usp=drivesdk"
    ],
    "lat": 43.6532,
    "lng": -79.3832,
    "location": "Canada",
    "city": "Toronto",
    "fact": "A Canadian pastry filled with butter, sugar, and eggs. This sweet treat represents the country's love for simple desserts and its mastery of traditional baking techniques."
  },
  {
    "name": "Poutine",
    "images": [
      "https://drive.google.com/file/d/1iVa5deVNjdHiPo8vFi2tAa6yYXv-IDnM/view?usp=drivesdk",
      "https://drive.google.com/file/d/1ZA6XQ-PkfrAxD0fO7J0hTycZzO3fUlJJ/view?usp=drivesdk"
    ],
    "lat": 43.6532,
    "lng": -79.3832,
    "location": "Canada",
    "city": "Toronto",
    "fact": "French fries topped with cheese curds and gravy. This iconic Canadian dish represents the country's fusion of French and British influences and its love for hearty comfort food."
  },
  {
    "name": "Hákarl",
    "images": [],
    "lat": 64.1466,
    "lng": -21.9426,
    "location": "Iceland",
    "city": "Reykjavik",
    "fact": "Fermented shark meat that's buried underground for months. This acquired taste represents the resourcefulness of Icelandic cuisine and the country's mastery of traditional preservation techniques."
  },
  {
    "name": "Kjötsúpa Lamb Soup",
    "images": [],
    "lat": 64.1466,
    "lng": -21.9426,
    "location": "Iceland",
    "city": "Reykjavik",
    "fact": "A traditional Icelandic soup made with lamb and root vegetables. This hearty dish represents the country's love for simple, nourishing meals and its mastery of slow-cooking techniques."
  },
  {
    "name": "Pylsur",
    "images": [],
    "lat": 64.1466,
    "lng": -21.9426,
    "location": "Iceland",
    "city": "Reykjavik",
    "fact": "Icelandic hot dogs made with lamb, pork, and beef. This popular street food represents the country's adaptation of international dishes to local tastes and ingredients."
  },
  {
    "name": "Sannakji",
    "images": [],
    "lat": 37.5665,
    "lng": 126.978,
    "location": "South Korea",
    "city": "Seoul",
    "fact": "Live octopus that's cut up and served immediately while still moving. This extreme delicacy represents the adventurous nature of Korean cuisine and the country's love for fresh, unique textures."
  },
  {
    "name": "Bibimbap",
    "images": [],
    "lat": 37.5665,
    "lng": 126.978,
    "location": "South Korea",
    "city": "Seoul",
    "fact": "A Korean rice bowl topped with various vegetables, meat, and a fried egg. This colorful dish represents the balance of Korean cuisine and the country's mastery of combining different flavors and textures."
  },
  {
    "name": "Kimchi",
    "images": [],
    "lat": 37.5665,
    "lng": 126.978,
    "location": "South Korea",
    "city": "Seoul",
    "fact": "Fermented vegetables, usually cabbage, that's a staple of Korean cuisine. This tangy side dish represents the importance of fermentation in Korean cooking and the country's mastery of preserving techniques."
  },
  {
    "name": "Tiết Canh",
    "images": [],
    "lat": 10.8231,
    "lng": 106.6297,
    "location": "Vietnam",
    "city": "Ho Chi Minh City",
    "fact": "A Vietnamese dish made with raw duck blood and various herbs. This adventurous delicacy represents the bold flavors of Vietnamese cuisine and the country's mastery of balancing strong tastes."
  },
  {
    "name": "Bánh Mì",
    "images": [
      "https://drive.google.com/file/d/1NVcdJUbNsQbJ4NaL2-qncgZLao7XVaIH/view?usp=drivesdk",
      "https://drive.google.com/file/d/1TXeMMAuBI2x764oPjdq6T8VNuFfHESfN/view?usp=drivesdk",
      "https://drive.google.com/file/d/1LEv7GGG1xkt9Ztwl8xzflT1QYCPUrZ5a/view?usp=drivesdk"
    ],
    "lat": 10.8231,
    "lng": 106.6297,
    "location": "Vietnam",
    "city": "Ho Chi Minh City",
    "fact": "A Vietnamese sandwich made with French bread and various fillings. This fusion dish represents the influence of French colonialism on Vietnamese cuisine and the country's ability to adapt foreign techniques."
  },
  {
    "name": "Phở",
    "images": [
      "https://drive.google.com/file/d/1Z2oRH22hcNtgcB8X90UQfqC2UFe_PpFv/view?usp=drivesdk",
      "https://drive.google.com/file/d/1ZfhEiW_mHvllGbgQmm2f1rwtFz2uIR2n/view?usp=drivesdk",
      "https://drive.google.com/file/d/1Ou3ZkvyA2T9Rlh_th8BoQ2fHWQnlQU0C/view?usp=drivesdk"
    ],
    "lat": 10.8231,
    "lng": 106.6297,
    "location": "Vietnam",
    "city": "Ho Chi Minh City",
    "fact": "A Vietnamese noodle soup made with beef or chicken broth and rice noodles. This comforting dish represents the soul of Vietnamese cuisine and the country's mastery of complex, aromatic broths."
  },
  {
    "name": "Green Curry",
    "images": [],
    "lat": 13.7563,
    "lng": 100.5018,
    "location": "Thailand",
    "city": "Bangkok",
    "fact": "A spicy Thai curry made with green chilies, coconut milk, and various vegetables. This vibrant dish represents the bold flavors of Thai cuisine and the country's mastery of balancing heat with creaminess."
  },
  {
    "name": "Larb Mote Daeng",
    "images": [],
    "lat": 13.7563,
    "lng": 100.5018,
    "location": "Thailand",
    "city": "Bangkok",
    "fact": "A spicy Thai salad made with red ant eggs, herbs, and chili. This unique dish represents the adventurous nature of Thai cuisine and the country's use of unusual but flavorful ingredients."
  },
  {
    "name": "Tom Yum Goong",
    "images": [],
    "lat": 13.7563,
    "lng": 100.5018,
    "location": "Thailand",
    "city": "Bangkok",
    "fact": "A hot and sour Thai soup made with shrimp, lemongrass, and galangal. This aromatic dish represents the perfect balance of Thai flavors and the country's mastery of complex, layered tastes."
  },
  {
    "name": "Pad Thai",
    "images": [],
    "lat": 13.7563,
    "lng": 100.5018,
    "location": "Thailand",
    "city": "Bangkok",
    "fact": "A stir-fried noodle dish that has become Thailand's most famous export. This sweet and savory dish represents the country's ability to create globally appealing flavors while maintaining its culinary identity."
  },
  {
    "name": "Percebes Gooseneck Barnacles",
    "images": [],
    "lat": 40.4168,
    "lng": -3.7038,
    "location": "Spain",
    "city": "Madrid",
    "fact": "A rare and expensive delicacy harvested from dangerous rocky coastlines. This unique seafood represents the adventurous spirit of Spanish cuisine and the country's mastery of simple preparations that let quality ingredients shine."
  },
  {
    "name": "Tortilla Española",
    "images": [],
    "lat": 40.4168,
    "lng": -3.7038,
    "location": "Spain",
    "city": "Madrid",
    "fact": "A Spanish omelette made with eggs, potatoes, and onions. This simple yet satisfying dish represents the foundation of Spanish cuisine and the country's mastery of egg-based dishes."
  },
  {
    "name": "Paella Valenciana",
    "images": [
      "https://drive.google.com/uc?export=view&id=17YVZv_KIBXczTBEOxm_gd3dVIIaSPXg7"
    ],
    "lat": 40.4168,
    "lng": -3.7038,
    "location": "Spain",
    "city": "Madrid",
    "fact": "A rice dish that originated in Valencia, traditionally made with rabbit, chicken, and beans. This iconic dish represents the diversity of Spanish cuisine and the country's mastery of rice cooking techniques."
  },
  {
    "name": "Profiteroles",
    "images": [],
    "lat": 48.8566,
    "lng": 2.3522,
    "location": "France",
    "city": "Paris",
    "fact": "Small choux pastry balls filled with cream and topped with chocolate sauce. This elegant dessert represents the sophistication of French pastry-making and the country's influence on world cuisine."
  },
  {
    "name": "Quiche Lorraine",
    "images": [],
    "lat": 48.8566,
    "lng": 2.3522,
    "location": "France",
    "city": "Paris",
    "fact": "A savory tart made with eggs, cream, and bacon in a pastry crust. This classic represents the elegance of French home cooking and the country's mastery of pastry techniques."
  },
  {
    "name": "Chocolate Éclair",
    "images": [],
    "lat": 48.8566,
    "lng": 2.3522,
    "location": "France",
    "city": "Paris",
    "fact": "A pastry made with choux dough filled with cream and topped with chocolate icing. This elegant dessert represents the artistry of French pastry-making and the country's influence on world cuisine."
  },
  {
    "name": "French Onion Soup",
    "images": [],
    "lat": 48.8566,
    "lng": 2.3522,
    "location": "France",
    "city": "Paris",
    "fact": "A rich soup made with caramelized onions, beef broth, and topped with melted cheese. This classic represents the depth of French flavors and the country's ability to create comfort food with sophisticated techniques."
  },
  {
    "name": "Crêpes",
    "images": [],
    "lat": 48.8566,
    "lng": 2.3522,
    "location": "France",
    "city": "Paris",
    "fact": "Thin pancakes that can be sweet or savory, representing the versatility of French cuisine. This beloved dish represents the country's mastery of simple techniques and the importance of quality ingredients in French cooking."
  },
  {
    "name": "Foie Gras",
    "images": [],
    "lat": 48.8566,
    "lng": 2.3522,
    "location": "France",
    "city": "Paris",
    "fact": "A luxury food product made from the liver of a duck or goose that has been specially fattened. This controversial delicacy represents the sophistication of French cuisine and the country's mastery of traditional techniques."
  },
  {
    "name": "Escargots de Bourgogne",
    "images": [],
    "lat": 48.8566,
    "lng": 2.3522,
    "location": "France",
    "city": "Paris",
    "fact": "Snails cooked in garlic butter and served in their shells. This classic French appetizer represents the country's adventurous palate and its mastery of simple yet sophisticated preparations."
  },
  {
    "name": "Coq au Vin",
    "images": [
      "https://drive.google.com/uc?export=view&id=1Am_xjSDVf0zXcP4ggyEcIqRbw4ZYAlX7"
    ],
    "lat": 48.8566,
    "lng": 2.3522,
    "location": "France",
    "city": "Paris",
    "fact": "A classic French dish of chicken braised with wine, mushrooms, and onions. This hearty stew represents the essence of French country cooking and the importance of wine in French culinary traditions."
  },
  {
    "name": "Peanut Butter and Jelly Sandwich",
    "images": [],
    "lat": 40.7128,
    "lng": -74.006,
    "location": "USA",
    "city": "New York",
    "fact": "A simple sandwich made with peanut butter and fruit jelly on bread. This childhood favorite represents American simplicity and the country's love for sweet and savory combinations."
  },
  {
    "name": "Chocolate Chip Cookies",
    "images": [],
    "lat": 42.4072,
    "lng": -71.3824,
    "location": "USA",
    "city": "Massachusetts",
    "fact": "Soft, chewy cookies loaded with chocolate chips that have become America's favorite cookie. This homemade treat represents the country's baking traditions and the importance of comfort foods in American culture."
  },
  {
    "name": "Key Lime Pie",
    "images": [],
    "lat": 24.5551,
    "lng": -81.782,
    "location": "USA",
    "city": "Key West",
    "fact": "A tangy dessert made with Key lime juice, sweetened condensed milk, and a graham cracker crust. This refreshing pie represents the tropical flavors of Florida and is considered the state's official dessert."
  },
  {
    "name": "Clam Chowder",
    "images": [],
    "lat": 42.3601,
    "lng": -71.0589,
    "location": "USA",
    "city": "Boston",
    "fact": "A creamy New England soup made with clams, potatoes, and onions. This hearty seafood soup represents the coastal cuisine of the northeastern United States and is a beloved comfort food in cold weather."
  },
  {
    "name": "Philly Cheesesteak",
    "images": [],
    "lat": 39.9526,
    "lng": -75.1652,
    "location": "USA",
    "city": "Philadelphia",
    "fact": "A sandwich made with thinly sliced beefsteak and melted cheese on a long roll. This Philadelphia classic represents the city's working-class roots and has become one of America's most iconic street foods."
  },
  {
    "name": "Chicken and Waffles",
    "images": [
      "https://drive.google.com/file/d/1P7NclDqYkoNGwTBCv7IO58EfT6lY24Ca/view?usp=drivesdk",
      "https://drive.google.com/file/d/1hZ2Rb_SfG0vUBAIP6kx5gDRGF7nvqNIW/view?usp=drivesdk",
      "https://drive.google.com/file/d/1uJGAhiYfJlMhLVf_10JDlsXQHLzUjYq6/view?usp=drivesdk"
    ],
    "lat": 34.0522,
    "lng": -118.2437,
    "location": "USA",
    "city": "Los Angeles",
    "fact": "A unique combination of crispy fried chicken served over fluffy waffles, often drizzled with maple syrup. This soul food favorite represents the fusion of Southern and breakfast traditions in American cuisine."
  },
  {
    "name": "Grilled Cheese Sandwich",
    "images": [],
    "lat": 40.7128,
    "lng": -74.006,
    "location": "USA",
    "city": "New York",
    "fact": "A simple sandwich made with bread and melted cheese, often grilled until golden and crispy. This comfort food classic represents American simplicity and the country's love for satisfying, easy-to-make meals."
  },
  {
    "name": "Meatloaf",
    "images": [],
    "lat": 40.3888,
    "lng": -82.7649,
    "location": "USA",
    "city": "Ohio",
    "fact": "A ground meat mixture baked in a loaf pan and often glazed with ketchup. This family dinner staple represents American home cooking and the country's tradition of simple, nourishing meals."
  },
  {
    "name": "Chicken Pot Pie",
    "images": [],
    "lat": 40.2732,
    "lng": -76.8754,
    "location": "USA",
    "city": "Pennsylvania",
    "fact": "A savory pie filled with chicken, vegetables, and gravy, topped with a flaky pastry crust. This comfort food classic represents American home cooking and the country's love for hearty, satisfying meals."
  },
  {
    "name": "Caesar Salad",
    "images": [
      "https://drive.google.com/file/d/1eJe0FJ9xZfLsOGEQAmC8p7jMj9mLTKAL/view?usp=drivesdk",
      "https://drive.google.com/file/d/1lhDzinm2eJi5BMPpwnjoGcPGSK6QjZWj/view?usp=drivesdk",
      "https://drive.google.com/file/d/14U5CrkRpI-8Zlml2lM9eMra7aeGj-oF1/view?usp=drivesdk"
    ],
    "lat": 32.5149,
    "lng": -117.0382,
    "location": "USA",
    "city": "Tijuana",
    "fact": "A crisp romaine lettuce salad with croutons, parmesan cheese, and a creamy Caesar dressing. This classic salad represents the sophistication of American cuisine and its ability to create timeless dishes."
  },
  {
    "name": "Buffalo Wings",
    "images": [
      "https://drive.google.com/file/d/1l1e8xJFwY2IV437tMGibcVvJTbWS8RmY/view?usp=drivesdk",
      "https://drive.google.com/file/d/1F9guZ9Wx3fGljV9dknV-VogfGIR6nVGL/view?usp=drivesdk",
      "https://drive.google.com/file/d/1OqQIP2EYFiUV_VmvmoELK8c7mPuUrbdp/view?usp=drivesdk"
    ],
    "lat": 42.8864,
    "lng": -78.8784,
    "location": "USA",
    "city": "Buffalo",
    "fact": "Spicy chicken wings coated in hot sauce and butter, served with blue cheese dressing. This finger food favorite represents American bar culture and the country's love for bold, spicy flavors."
  },
  {
    "name": "Rocky Mountain Oysters",
    "images": [],
    "lat": 39.7392,
    "lng": -104.9903,
    "location": "USA",
    "city": "Denver",
    "fact": "A true test of culinary bravery, these are actually bull testicles that are peeled, coated in flour, and deep-fried. This unusual delicacy represents the adventurous spirit of the American West and the resourcefulness of frontier cooking."
  },
  {
    "name": "BBQ Ribs",
    "images": [
      "https://drive.google.com/file/d/1VhsowKKJzjFe9FOdRiwjmRWP33irlYtQ/view?usp=drivesdk",
      "https://drive.google.com/file/d/14ry1JB0DkNg-NMW8k_4fQSFti3IDxv75/view?usp=drivesdk",
      "https://drive.google.com/file/d/1OkJRh-zjcuii-ZIQNS2-LZKldJPUgdPM/view?usp=drivesdk"
    ],
    "lat": 39.0997,
    "lng": -94.5786,
    "location": "USA",
    "city": "Kansas City",
    "fact": "Slow-cooked pork ribs slathered in tangy barbecue sauce represent the heart of American barbecue culture. This finger-licking dish showcases the country's mastery of low-and-slow cooking techniques and regional sauce variations."
  },
  {
    "name": "Hamburger",
    "images": [],
    "lat": 40.7128,
    "lng": -74.006,
    "location": "USA",
    "city": "New York",
    "fact": "The hamburger as we know it today evolved from German immigrants bringing their Hamburg steak to America in the 19th century. This iconic American food represents the country's love for simple, satisfying meals and has become a global symbol of American cuisine."
  },
  {
    "name": "Fortune Cookies",
    "images": [],
    "lat": 39.9042,
    "lng": 116.4074,
    "location": "China",
    "city": "Beijing",
    "fact": "Crispy cookies with a fortune inside, often served at Chinese restaurants. This American-Chinese invention represents the fusion of cultures and the global reach of Chinese cuisine."
  },
  {
    "name": "Chow Mein",
    "images": [],
    "lat": 39.9042,
    "lng": 116.4074,
    "location": "China",
    "city": "Beijing",
    "fact": "A Chinese stir-fried noodle dish with vegetables and meat. This popular dish represents the diversity of Chinese noodle cuisine and the country's mastery of stir-frying techniques."
  },
  {
    "name": "Mooncakes",
    "images": [],
    "lat": 39.9042,
    "lng": 116.4074,
    "location": "China",
    "city": "Beijing",
    "fact": "Traditional Chinese pastries filled with sweet or savory fillings, traditionally eaten during the Mid-Autumn Festival. This cultural dish represents the importance of food in Chinese celebrations and the country's mastery of pastry techniques."
  },
  {
    "name": "Wonton Soup",
    "images": [],
    "lat": 39.9042,
    "lng": 116.4074,
    "location": "China",
    "city": "Beijing",
    "fact": "A clear soup with delicate dumplings filled with meat or shrimp. This comforting dish represents the artistry of Chinese dumpling-making and the country's emphasis on balance in flavors and textures."
  },
  {
    "name": "Char Siu",
    "images": [],
    "lat": 39.9042,
    "lng": 116.4074,
    "location": "China",
    "city": "Beijing",
    "fact": "Chinese barbecued pork that's marinated and roasted until caramelized. This flavorful dish represents the sophistication of Chinese cooking techniques and the country's mastery of marinades and roasting."
  },
  {
    "name": "Century Egg",
    "images": [],
    "lat": 39.9042,
    "lng": 116.4074,
    "location": "China",
    "city": "Beijing",
    "fact": "A Chinese delicacy made by preserving duck, chicken, or quail eggs in a mixture of clay, ash, salt, quicklime, and rice hulls for several weeks. This unique dish represents the country's mastery of preservation techniques and its love for bold, acquired tastes."
  },
  {
    "name": "Dim Sum",
    "images": [],
    "lat": 39.9042,
    "lng": 116.4074,
    "location": "China",
    "city": "Beijing",
    "fact": "A traditional Chinese meal of small plates served with tea. This social dining experience represents the country's mastery of dumpling-making and the importance of sharing food in Chinese culture."
  },
  {
    "name": "Peking Duck",
    "images": [
      "https://drive.google.com/uc?export=view&id=1hJ3wKIARLMeRyve-fpzOz-VWtr_keHqT",
      "https://drive.google.com/uc?export=view&id=1hh14XWa4Lm0pBhJslxB1ezM8n5_BkOks",
      "https://drive.google.com/uc?export=view&id=1zOMXEVyRuuTKWqROJEtC5qanHJW9RDvW"
    ],
    "lat": 39.9042,
    "lng": 116.4074,
    "location": "China",
    "city": "Beijing",
    "fact": "A famous Chinese dish of crispy duck served with pancakes and hoisin sauce. This imperial dish represents the pinnacle of Chinese cooking techniques and the country's mastery of roasting and presentation."
  },
  {
    "name": "Raita",
    "images": [],
    "lat": 28.6139,
    "lng": 77.209,
    "location": "India",
    "city": "New Delhi",
    "fact": "A cooling yogurt-based side dish with vegetables and spices. This refreshing accompaniment represents the balance of Indian cuisine and the country's mastery of contrasting flavors and temperatures."
  },
  {
    "name": "Vindaloo",
    "images": [],
    "lat": 28.6139,
    "lng": 77.209,
    "location": "India",
    "city": "New Delhi",
    "fact": "A spicy curry dish that originated in Goa with Portuguese influence. This fiery dish represents the fusion of Indian and Portuguese cuisines and the country's mastery of complex spice combinations."
  },
  {
    "name": "Kulfi",
    "images": [],
    "lat": 28.6139,
    "lng": 77.209,
    "location": "India",
    "city": "New Delhi",
    "fact": "A traditional Indian ice cream made with milk, sugar, and various flavorings. This frozen dessert represents the creativity of Indian sweets and the country's ability to create cooling treats for hot climates."
  },
  {
    "name": "Rogan Josh",
    "images": [],
    "lat": 28.6139,
    "lng": 77.209,
    "location": "India",
    "city": "New Delhi",
    "fact": "A fragrant lamb curry from Kashmir made with yogurt, onions, and aromatic spices. This elegant dish represents the sophistication of Indian cuisine and the country's mastery of complex spice blends."
  },
  {
    "name": "Chana Masala",
    "images": [],
    "lat": 28.6139,
    "lng": 77.209,
    "location": "India",
    "city": "New Delhi",
    "fact": "A spicy chickpea curry that's a staple of North Indian cuisine. This protein-rich dish represents the importance of legumes in Indian cooking and the country's mastery of spice combinations."
  },
  {
    "name": "Palak Paneer",
    "images": [],
    "lat": 28.6139,
    "lng": 77.209,
    "location": "India",
    "city": "New Delhi",
    "fact": "A vegetarian curry made with cottage cheese in a creamy spinach sauce. This nutritious dish represents the diversity of Indian vegetarian cuisine and the country's mastery of combining vegetables with dairy."
  },
  {
    "name": "Chicken Tikka Masala",
    "images": [],
    "lat": 28.6139,
    "lng": 77.209,
    "location": "India",
    "city": "New Delhi",
    "fact": "A popular curry dish made with marinated chicken in a spiced tomato and cream sauce. This beloved dish represents the fusion of Indian and British cuisines and has become one of the world's most popular Indian dishes."
  },
  {
    "name": "Bheja Fry",
    "images": [],
    "lat": 28.6139,
    "lng": 77.209,
    "location": "India",
    "city": "New Delhi",
    "fact": "A spicy Indian dish made with brain (usually goat or sheep) that's marinated and fried. This adventurous delicacy represents the country's use of all parts of the animal and its mastery of bold, complex flavors."
  },
  {
    "name": "Samosa",
    "images": [],
    "lat": 28.6139,
    "lng": 77.209,
    "location": "India",
    "city": "New Delhi",
    "fact": "Triangular pastries filled with spiced potatoes, peas, and sometimes meat. This popular street food represents the diversity of Indian snacks and the country's mastery of pastry-making techniques."
  },
  {
    "name": "Biryani",
    "images": [
      "https://drive.google.com/uc?export=view&id=1ysms4acRrNy0jPAf6szoTz-lINa5l5aY",
      "https://drive.google.com/uc?export=view&id=1YgpuMvUpK2DHvRkjlpe5_wDcqvQ8ZRl3"
    ],
    "lat": 28.6139,
    "lng": 77.209,
    "location": "India",
    "city": "New Delhi",
    "fact": "A fragrant rice dish layered with spiced meat and cooked slowly. This royal dish represents the sophistication of Indian cuisine and the country's mastery of complex layering techniques."
  },
  {
    "name": "Guacamole",
    "images": [],
    "lat": 19.4326,
    "lng": -99.1332,
    "location": "Mexico",
    "city": "Mexico City",
    "fact": "A dip made from mashed avocados, lime juice, and various seasonings. This fresh dish represents the importance of avocados in Mexican cuisine and the country's mastery of simple, flavorful combinations."
  },
  {
    "name": "Tres Leches Cake",
    "images": [],
    "lat": 19.4326,
    "lng": -99.1332,
    "location": "Mexico",
    "city": "Mexico City",
    "fact": "A sponge cake soaked in three types of milk and topped with whipped cream. This moist dessert represents the fusion of Mexican and European cuisines and the country's mastery of dairy-based sweets."
  },
  {
    "name": "Pozole",
    "images": [],
    "lat": 19.4326,
    "lng": -99.1332,
    "location": "Mexico",
    "city": "Mexico City",
    "fact": "A traditional soup made with hominy, meat, and chili peppers. This hearty dish represents the ancient roots of Mexican cuisine and the country's mastery of complex, layered flavors."
  },
  {
    "name": "Tostadas",
    "images": [],
    "lat": 19.4326,
    "lng": -99.1332,
    "location": "Mexico",
    "city": "Mexico City",
    "fact": "Crispy fried tortillas topped with beans, meat, cheese, and vegetables. This versatile dish represents the creativity of Mexican cuisine and the country's love for contrasting textures and flavors."
  },
  {
    "name": "Enchiladas",
    "images": [],
    "lat": 19.4326,
    "lng": -99.1332,
    "location": "Mexico",
    "city": "Mexico City",
    "fact": "Corn tortillas rolled around a filling and covered with chili sauce. This classic dish represents the heart of Mexican cuisine and the country's mastery of corn-based foods and chili peppers."
  },
  {
    "name": "Escamoles",
    "images": [],
    "lat": 19.4326,
    "lng": -99.1332,
    "location": "Mexico",
    "city": "Mexico City",
    "fact": "Known as \"insect caviar,\" escamoles are the edible larvae and pupae of ants. Harvested from the roots of agave plants, they have a slightly nutty, buttery taste and a texture similar to cottage cheese when cooked."
  },
  {
    "name": "Mole Poblano",
    "images": [],
    "lat": 19.4326,
    "lng": -99.1332,
    "location": "Mexico",
    "city": "Mexico City",
    "fact": "A legendary sauce said to have been invented in a convent in Puebla. Mole is incredibly complex, sometimes containing over 20 ingredients like chili peppers, nuts, spices, and a touch of chocolate, creating a rich, dark sauce."
  },
  {
    "name": "Tacos al Pastor",
    "images": [],
    "lat": 19.4326,
    "lng": -99.1332,
    "location": "Mexico",
    "city": "Mexico City",
    "fact": "This dish has a fascinating history, adapted from the vertical spit-roasting shawarma technique brought by Lebanese immigrants. It's made with marinated pork, which is shaved off a rotating trompo and served with pineapple."
  },
  {
    "name": "Onigiri",
    "images": [],
    "lat": 35.6762,
    "lng": 139.6503,
    "location": "Japan",
    "city": "Tokyo",
    "fact": "Japanese rice balls that are often filled with various ingredients and wrapped in nori seaweed. This portable snack represents the importance of rice in Japanese culture and the country's creativity with simple ingredients."
  },
  {
    "name": "Karaage",
    "images": [],
    "lat": 35.6762,
    "lng": 139.6503,
    "location": "Japan",
    "city": "Tokyo",
    "fact": "Japanese fried chicken that's marinated and coated with flour before frying. This crispy dish represents the Japanese mastery of frying techniques and the country's attention to texture and flavor."
  },
  {
    "name": "Mochi",
    "images": [],
    "lat": 35.6762,
    "lng": 139.6503,
    "location": "Japan",
    "city": "Tokyo",
    "fact": "Sweet rice cakes made from glutinous rice and often filled with sweet bean paste. This traditional treat represents the importance of rice in Japanese culture and the country's mastery of traditional techniques."
  },
  {
    "name": "Chirashi",
    "images": [],
    "lat": 35.6762,
    "lng": 139.6503,
    "location": "Japan",
    "city": "Tokyo",
    "fact": "A bowl of sushi rice topped with various sashimi and vegetables. This colorful dish represents the artistry of Japanese presentation and the country's love for fresh, seasonal ingredients."
  },
  {
    "name": "Sashimi",
    "images": [],
    "lat": 35.6762,
    "lng": 139.6503,
    "location": "Japan",
    "city": "Tokyo",
    "fact": "Fresh raw fish or seafood sliced into thin pieces and served without rice. This elegant dish represents the pinnacle of Japanese cuisine and the country's emphasis on fresh, quality ingredients."
  },
  {
    "name": "Udon",
    "images": [],
    "lat": 35.6762,
    "lng": 139.6503,
    "location": "Japan",
    "city": "Tokyo",
    "fact": "Thick wheat noodles served in a mild broth with various toppings. This comforting dish represents the diversity of Japanese noodle cuisine and the country's mastery of simple, satisfying flavors."
  },
  {
    "name": "Tonkatsu",
    "images": [],
    "lat": 35.6762,
    "lng": 139.6503,
    "location": "Japan",
    "city": "Tokyo",
    "fact": "A breaded and deep-fried pork cutlet that's crispy on the outside and tender inside. This popular dish represents the Japanese adaptation of Western cooking techniques and the country's attention to texture and presentation."
  },
  {
    "name": "Shirako",
    "images": [],
    "lat": 35.6762,
    "lng": 139.6503,
    "location": "Japan",
    "city": "Tokyo",
    "fact": "A true delicacy for the adventurous, Shirako translates to \"white children.\" It's the milt, or sperm sacs, of male cod, praised for its soft, creamy texture that melts in your mouth when served poached or lightly grilled."
  },
  {
    "name": "Ramen",
    "images": [],
    "lat": 35.6762,
    "lng": 139.6503,
    "location": "Japan",
    "city": "Tokyo",
    "fact": "Though its roots are in Chinese noodle soups, ramen was popularized in Japan in the late 19th century. Each region has its own beloved version, from the rich tonkotsu of Fukuoka to the miso ramen of Sapporo."
  },
  {
    "name": "Sushi",
    "images": [
      "https://drive.google.com/uc?export=view&id=1YBJv3eTKs2CpB4byoirG2qcMmn-nAJGc",
      "https://drive.google.com/uc?export=view&id=16GTvm2zHDKUPsl75xzqq_3G9sghKQas2",
      "https://drive.google.com/uc?export=view&id=1wTQ8BeO5w1xysFNJhAAYGmj3csyT7EQY"
    ],
    "lat": 35.6762,
    "lng": 139.6503,
    "location": "Japan",
    "city": "Tokyo",
    "fact": "What began as a method for preserving fish in fermented rice in Southeast Asia evolved in Edo-period Japan into the culinary art form we know today, focusing on the freshness of the fish itself."
  },
  {
    "name": "Minestrone",
    "images": [],
    "lat": 45.4642,
    "lng": 9.19,
    "location": "Italy",
    "city": "Milan",
    "fact": "A thick Italian vegetable soup made with beans, pasta, and various vegetables. This hearty soup represents the diversity of Italian cuisine and the country's mastery of simple, nourishing dishes."
  },
  {
    "name": "Bruschetta",
    "images": [
      "https://drive.google.com/file/d/1-VAMxdXI2KY6ts61ZXHlt3qT1ViFm4AT/view?usp=drivesdk",
      "https://drive.google.com/file/d/1GB7N8Eg3qEjdw8CqG17f2YFAcQDN37EZ/view?usp=drivesdk",
      "https://drive.google.com/file/d/1z7PY2GioyOBq-A7H623QrLgrKflrhKPo/view?usp=drivesdk"
    ],
    "lat": 43.7696,
    "lng": 11.2558,
    "location": "Italy",
    "city": "Tuscany",
    "fact": "Grilled bread rubbed with garlic and topped with olive oil, salt, and various toppings. This simple appetizer represents the essence of Italian cuisine and the country's emphasis on quality ingredients."
  },
  {
    "name": "Cannoli",
    "images": [
      "https://drive.google.com/file/d/1naqh-y7KNdN1k7VnurfJqHth9dQ6SRZj/view?usp=drivesdk",
      "https://drive.google.com/file/d/1hUF_5vr7pOjen3Q9Yi9YerkCYnL0Lx4h/view?usp=drivesdk",
      "https://drive.google.com/file/d/1PCXvbZhMah1_f_NIdASzIwDm704hBHNr/view?usp=drivesdk"
    ],
    "lat": 37.5994,
    "lng": 14.0154,
    "location": "Italy",
    "city": "Sicily",
    "fact": "Sicilian pastry tubes filled with sweet ricotta cheese and often studded with chocolate chips or candied fruit. This elegant dessert represents the artistry of Italian pastry-making and the country's mastery of sweet treats."
  },
  {
    "name": "Arancini",
    "images": [
      "https://drive.google.com/file/d/1R8HKgrW_jNamhiG7wqDvpARZUg0aWZbZ/view?usp=drivesdk",
      "https://drive.google.com/file/d/1I_3jgCF2oCxHiRBoH0iviekuc2hsBO0H/view?usp=drivesdk",
      "https://drive.google.com/file/d/1jwA0ViBt4sSmbk5U7PaKvwaWmqHTgLYT/view?usp=drivesdk"
    ],
    "lat": 37.5994,
    "lng": 14.0154,
    "location": "Italy",
    "city": "Sicily",
    "fact": "Sicilian rice balls that are stuffed, coated with breadcrumbs, and deep-fried. This street food favorite represents the creativity of Italian cuisine and the country's ability to transform simple ingredients into extraordinary dishes."
  },
  {
    "name": "Panna Cotta",
    "images": [],
    "lat": 45.0703,
    "lng": 7.6869,
    "location": "Italy",
    "city": "Piedmont",
    "fact": "A traditional Italian dessert made with sweetened cream thickened with gelatin. This elegant dessert represents the refinement of Italian sweets and the country's mastery of simple yet sophisticated techniques."
  },
  {
    "name": "Spaghetti Carbonara",
    "images": [
      "https://drive.google.com/file/d/1_AWhNrRi9K0KRMkV0uQVDWQLpI5fT6oo/view?usp=drivesdk",
      "https://drive.google.com/file/d/1wCXiVV6Sn8d_XJ3kfwre7jy7YZOymxyf/view?usp=drivesdk",
      "https://drive.google.com/file/d/1Mr-ffUGWfI6QoDi2qXCnz4W-aDWOPylP/view?usp=drivesdk"
    ],
    "lat": 41.9028,
    "lng": 12.4964,
    "location": "Italy",
    "city": "Rome",
    "fact": "A Roman pasta dish made with eggs, cheese, pancetta, and black pepper. This creamy pasta represents the sophistication of Italian cooking and the importance of technique in creating perfect textures."
  },
  {
    "name": "Margherita Pizza",
    "images": [
      "https://drive.google.com/file/d/1B6VeFScJUzVeAyKxthvPsEc7DgFH3NyD/view?usp=drivesdk",
      "https://drive.google.com/file/d/1JsZHQ5TMCUDX2MT_7_sUlBasWY5ggmQ0/view?usp=drivesdk",
      "https://drive.google.com/file/d/12KdUyJpWSS1JPCIghlG_6WrMxehIdg2F/view?usp=drivesdk"
    ],
    "lat": 40.8518,
    "lng": 14.2681,
    "location": "Italy",
    "city": "Naples",
    "fact": "A simple pizza topped with tomato sauce, mozzarella, and fresh basil. This classic represents the essence of Italian cuisine and the country's mastery of simple, quality ingredients."
  },
  {
    "name": "Casu Marzu",
    "images": [],
    "lat": 40.1209,
    "lng": 9.0129,
    "location": "Italy",
    "city": "Sardinia",
    "fact": "An infamous Sardinian sheep milk cheese known for containing live insect larvae. The acid from the larvae breaks down the cheese's fats, making the texture very soft with a strong, pungent flavor."
  }
]